time,q_w,q_x,q_y,q_z,omega_x,omega_y,omega_z,gamma1_deg,gamma2_deg,varpi1_rpm,varpi2_rpm,euler_roll_deg,euler_pitch_deg,euler_yaw_deg
0.000519677,1.0,0.0,0.0,0.0,0.0,0.0,0.0,0.0,0.0,0.0,0.0,0.0,0.0,0.0
0.010090774,1.0,0.0,0.0,0.0,0.0,0.0,0.0,0.0,0.0,1.039354,-1.039354,0.0,0.0,0.0
0.020005616,1.0,0.0,0.0,0.0,0.0,0.0,0.0,0.0,0.0,20.181548,-20.181548,0.0,0.0,0.0
0.030078787,1.0,4.879913968334617e-21,0.0,0.0,1.555573857356785e-18,0.0,0.0,0.0,0.0,40.011232,-40.011232,5.591969495450216e-19,0.0,0.0
0.040007321,1.0,1.753769722345316e-20,0.0,0.0,3.11114771471357e-18,0.0,0.0,0.0,0.0,60.157574000000004,-60.157574000000004,2.0096720665643366e-18,0.0,0.0
0.050103669,1.0,2.8576679537707966e-20,0.0,0.0,1.9819586498853078e-18,0.0,0.0,0.0,0.0,80.014642,-80.014642,3.2746462600170537e-18,0.0,0.0
0.060099485,1.0,3.848647278292796e-20,0.0,0.0,1.9819586488336684e-18,0.0,0.0,0.0,0.0,100.20733800000002,-100.20733800000002,4.410224917613768e-18,0.0,0.0
0.070048751,1.0,4.839626602709633e-20,0.0,0.0,1.9819586488336684e-18,0.0,0.0,0.0,0.0,120.19897,-120.19897,5.5458035750899755e-18,0.0,0.0
0.080095517,1.0,4.839626602709633e-20,0.0,0.0,1.9819586488336684e-18,0.0,0.0,0.0,0.0,140.097502,-140.097502,5.5458035750899755e-18,0.0,0.0
0.090042827,1.0,6.338741005878532e-20,0.0,0.0,3.1111477126102916e-18,0.0,0.0,0.0,0.0,160.19103400000003,-160.19103400000003,7.263662141267001e-18,0.0,0.0
0.100056051,1.0,8.458909394124573e-20,0.0,0.0,4.240336776386915e-18,0.0,0.0,0.0,0.0,180.08565400000003,-180.08565400000003,9.693196151338046e-18,0.0,0.0
0.110119149,1.0,1.057907778279127e-19,0.0,0.0,4.240336777438554e-18,0.0,0.0,0.0,0.0,200.112102,-200.112102,1.2122730161891128e-17,0.0,0.0
0.120055115,1.0,1.2755705625225193e-19,0.0,0.0,5.369525843318456e-18,0.0,0.0,0.0,0.0,220.23829799999996,-220.23829799999996,1.4616961940733732e-17,0.0,0.0
0.130085843,1.0,1.544046854741025e-19,0.0,0.0,5.369525844370096e-18,0.0,0.0,0.0,0.0,240.11023000000003,-240.11023000000003,1.7693473629422e-17,0.0,0.0
0.140086744,1.0,1.8181690922310902e-19,0.0,0.0,6.498714908146719e-18,0.0,0.0,0.0,0.0,260.171686,-260.171686,2.0834683085194716e-17,0.0,0.0
0.15015747,1.0,2.1374588923668673e-19,0.0,0.0,5.369525844370096e-18,0.0,0.0,0.0,0.0,280.173488,-280.173488,2.449347468306584e-17,0.0,0.0
0.160031435,1.0,2.40593518453279e-19,0.0,0.0,5.369525843318456e-18,0.0,0.0,0.0,0.0,300.31494,-300.31494,2.7569986371151557e-17,0.0,0.0
0.170104899,1.0,2.6744114767460376e-19,0.0,0.0,5.369525843318456e-18,0.0,0.0,0.0,0.0,320.0628700000001,-320.0628700000001,3.0646498059779573e-17,0.0,0.0
0.180075093,1.0,2.93159587825842e-19,0.0,0.0,4.240336777438554e-18,0.0,0.0,0.0,0.0,340.20979800000003,-340.20979800000003,3.3593614212431073e-17,0.0,0.0
0.190133008,1.0,3.1323208264820653e-19,0.0,0.0,3.1111477126102916e-18,0.0,0.0,0.0,0.0,360.15018599999996,-360.15018599999996,3.589375268767044e-17,0.0,0.0
0.200081296,1.0,3.287878212117837e-19,0.0,0.0,3.111147713661931e-18,0.0,0.0,0.0,0.0,380.2660160000001,-380.2660160000001,3.767630902147418e-17,0.0,0.0
0.210053153,1.0,3.443435597800933e-19,0.0,0.0,3.111147713661931e-18,0.0,0.0,0.0,0.0,400.1625920000001,-400.1625920000001,3.9458865355820215e-17,0.0,0.0
0.220172678,1.0,3.598992983484029e-19,0.0,0.0,3.111147713661931e-18,0.0,0.0,0.0,0.0,420.106306,-420.106306,4.124142169016625e-17,0.0,0.0
0.230132017,1.0,3.7545503691723837e-19,0.0,0.0,3.1111477147135705e-18,0.0,0.0,0.0,0.0,440.345356,-440.345356,4.3023978024572546e-17,0.0,0.0
0.240102113,1.0,3.910107754908062e-19,0.0,0.0,3.1111477147135705e-18,0.0,0.0,0.0,0.0,460.264034,-460.264034,4.480653435952113e-17,0.0,0.0
0.250164624,1.0,4.0487273046713167e-19,0.0,0.0,1.9819586498853078e-18,0.0,0.0,0.0,0.0,480.204226,-480.204226,4.639499739140877e-17,0.0,0.0
0.260026854,1.0,3.9499820393526887e-19,0.0,0.0,-1.836695566381845e-17,0.0,0.0,0.0,0.0,500.329248,-500.329248,4.526346000147738e-17,0.0,0.0
0.270065406,1.0,3.031634256177542e-19,0.0,0.0,-1.836695566276681e-17,0.0,0.0,0.0,0.0,520.0537079999999,-520.0537079999999,3.473996958125116e-17,0.0,0.0
0.280076575,1.0,2.1302243090116256e-19,0.0,0.0,-1.723776659793855e-17,0.0,0.0,0.0,0.0,540.130812,-540.130812,2.4410572464507648e-17,0.0,0.0
0.290058309,1.0,1.2683359791146975e-19,0.0,0.0,-1.723776659793855e-17,0.0,0.0,0.0,0.0,560.15315,-560.15315,1.4534059721573018e-17,0.0,0.0
0.300032512,1.0,4.064476492019956e-20,0.0,0.0,-1.7237766598990187e-17,0.0,0.0,0.0,0.0,580.116618,-580.116618,4.657546978457634e-18,0.0,0.0
0.310062752,1.0,-4.554406807475137e-20,0.0,0.0,-1.7237766598990187e-17,0.0,0.0,0.0,0.0,600.065024,-600.065024,-5.218965765079532e-18,0.0,0.0
0.320068151,1.0,-1.3173290106970233e-19,0.0,0.0,-1.7237766598990187e-17,0.0,0.0,0.0,0.0,620.125504,-620.125504,-1.5095478508616703e-17,0.0,0.0
0.330074138,1.0,-2.1566335593657418e-19,0.0,0.0,-1.6108577535213563e-17,0.0,0.0,0.0,0.0,640.1363020000001,-640.1363020000001,-2.4713200181586695e-17,0.0,0.0
0.340077875,1.0,-2.962062436126419e-19,0.0,0.0,-1.6108577535213563e-17,0.0,0.0,0.0,0.0,660.1482759999999,-660.1482759999999,-3.394273524885656e-17,0.0,0.0
0.350053741,1.0,-3.7674913128713227e-19,0.0,0.0,-1.6108577534161925e-17,0.0,0.0,0.0,0.0,680.1557499999999,-680.1557499999999,-4.317227031594567e-17,0.0,0.0
0.360119284,1.0,-4.550336408282854e-19,0.0,0.0,-1.4979388469333663e-17,0.0,0.0,0.0,0.0,700.107482,-700.107482,-5.214301431186507e-17,0.0,0.0
0.370053098,1.0,-5.276722050452971e-19,0.0,0.0,-1.3850199404505401e-17,0.0,0.0,0.0,0.0,720.238568,-720.238568,-6.046678063091462e-17,0.0,0.0
0.380172526,1.0,-5.946648239397448e-19,0.0,0.0,-1.2721010340728779e-17,0.0,0.0,0.0,0.0,740.1061960000001,-740.1061960000001,-6.814356927327507e-17,0.0,0.0
0.390016272,1.0,-6.560114975121547e-19,0.0,0.0,-1.1591821274848878e-17,0.0,0.0,0.0,0.0,760.3450519999999,-760.3450519999999,-7.517338023900673e-17,0.0,0.0
0.400051206,1.0,-7.111476312243286e-19,0.0,0.0,-1.0462632210020616e-17,0.0,0.0,0.0,0.0,780.032544,-780.032544,-8.149151575975982e-17,0.0,0.0
0.410135036,1.0,-7.606378196123611e-19,0.0,0.0,-9.333443145192354e-18,0.0,0.0,0.0,0.0,800.102412,-800.102412,-8.716267360364305e-17,0.0,0.0
0.420172708,1.0,-8.095634134695573e-19,0.0,0.0,-1.0462632211072255e-17,0.0,0.0,0.0,0.0,820.2700719999999,-820.2700719999999,-9.276913368002011e-17,0.0,0.0
0.430101633,1.0,-8.618765745249189e-19,0.0,0.0,-1.0462632211072255e-17,0.0,0.0,0.0,0.0,840.345416,-840.345416,-9.876378036294084e-17,0.0,0.0
0.440172652,1.0,-9.141897355802803e-19,0.0,0.0,-1.0462632211072255e-17,0.0,0.0,0.0,0.0,860.203266,-860.203266,-1.0475842704586154e-16,0.0,0.0
0.450005837,1.0,-9.665028966377449e-19,0.0,0.0,-1.0462632212123895e-17,0.0,0.0,0.0,0.0,880.3453039999999,-880.3453039999999,-1.1075307372902325e-16,0.0,0.0
0.460088885,1.0,-1.0188160576983642e-18,0.0,0.0,-1.0462632212123895e-17,0.0,0.0,0.0,0.0,900.011674,-900.011674,-1.1674772041254646e-16,0.0,0.0
0.469983191,1.0,-1.0739521914231574e-18,0.0,0.0,-1.1591821278003796e-17,0.0,0.0,0.0,0.0,920.1777699999999,-920.1777699999999,-1.2306585593474562e-16,0.0,0.0
0.480059002,1.0,-1.1285237306186911e-18,0.0,0.0,-1.0462632213175534e-17,0.0,0.0,0.0,0.0,939.9663820000002,-939.9663820000002,-1.2931929368961928e-16,0.0,0.0
0.490112125,1.0,-1.1808368916845682e-18,0.0,0.0,-1.0462632213175534e-17,0.0,0.0,0.0,0.0,960.1180039999999,-960.1180039999999,-1.35313940373745e-16,0.0,0.0
0.500094543,1.0,-1.235973025412516e-18,0.0,0.0,-1.1591821278003796e-17,0.0,0.0,0.0,0.0,980.22425,-980.22425,-1.4163207589630563e-16,0.0,0.0
0.510020534,1.0,-1.2967551044646056e-18,0.0,0.0,-1.2721010342832058e-17,0.0,0.0,0.0,0.0,1000.189086,-1000.189086,-1.4859718909573617e-16,0.0,0.0
0.52012451,1.0,-1.3603601561761376e-18,0.0,0.0,-1.2721010341780418e-17,0.0,0.0,0.0,0.0,1020.0410680000001,-1020.0410680000001,-1.5588579113330043e-16,0.0,0.0
0.529990945,0.9999999999948542,3.208052089235302e-06,0.0,0.0,-4.191581622964055e-18,0.0,0.0,0.0,0.0,1040.24902,-1040.24902,0.0003676156903432485,0.0,0.0
0.540145969,0.9999999999948542,3.2080520894553984e-06,0.0,0.0,-1.9332034922558905e-18,0.0,0.0,0.0,0.0,1059.98189,-1059.98189,0.00036761569036846965,0.0,0.0
0.55013269,0.9999999999948542,3.2080520896755e-06,0.0,0.0,-1.93320349330753e-18,0.0,0.0,0.0,0.0,1080.291938,-1080.291938,0.00036761569039369144,0.0,0.0
0.560050956,0.9999999999948542,3.2080520898956014e-06,0.0,0.0,-1.9332034922558905e-18,0.0,0.0,0.0,0.0,1100.2653799999998,-1100.2653799999998,0.00036761569041891324,0.0,0.0
0.570050194,0.9999999999948542,3.208052090115703e-06,0.0,0.0,-1.933203491204251e-18,0.0,0.0,0.0,0.0,1120.101912,-1120.101912,0.000367615690444135,0.0,0.0
0.580056866,0.9999999999948542,3.2080520903358095e-06,0.0,0.0,3.2517463845227383e-19,0.0,0.0,0.0,0.0,1140.100388,-1140.100388,0.00036761569046935737,0.0,0.0
0.59004877,0.9999999999948542,3.2080520905559195e-06,0.0,0.0,3.251746395039131e-19,0.0,0.0,0.0,0.0,1160.1137319999998,-1160.1137319999998,0.0003676156904945801,0.0,0.0
0.600059059,0.9999999999948542,3.2080520907760345e-06,0.0,0.0,1.4543637064354544e-18,0.0,0.0,0.0,0.0,1180.09754,-1180.09754,0.00036761569051980346,0.0,0.0
0.610079421,0.9999999999948542,3.208052090996153e-06,0.0,0.0,1.4543637053838152e-18,0.0,0.0,0.0,0.0,1200.118118,-1200.118118,0.00036761569054502715,0.0,0.0
0.62008355,0.9999999999948542,3.2080520912162714e-06,0.0,0.0,1.4543637064354544e-18,0.0,0.0,0.0,0.0,1220.158842,-1220.158842,0.00036761569057025084,0.0,0.0
0.630079659,0.9999999999948542,3.208052091436385e-06,0.0,0.0,3.2517464160719167e-19,0.0,0.0,0.0,0.0,1240.1671000000001,-1240.1671000000001,0.000367615690595474,0.0,0.0
0.640048875,0.9999999999948542,3.2080520916565e-06,0.0,0.0,1.4543637043321757e-18,0.0,0.0,0.0,0.0,1260.1593179999998,-1260.1593179999998,0.0003676156906206973,0.0,0.0
0.650172605,0.9999999999948542,3.208052091876621e-06,0.0,0.0,2.5835527702120776e-18,0.0,0.0,0.0,0.0,1280.0977499999997,-1280.0977499999997,0.0003676156906459213,0.0,0.0
0.660073072,0.9999999999948542,3.2080520920967436e-06,0.0,0.0,2.5835527702120776e-18,0.0,0.0,0.0,0.0,1300.3452100000002,-1300.3452100000002,0.00036761569067114556,0.0,0.0
0.670110157,0.9999999999948542,3.2080520923168662e-06,0.0,0.0,2.583552771263717e-18,0.0,0.0,0.0,0.0,1320.146144,-1320.146144,0.00036761569069636974,0.0,0.0
0.68002099,0.9999999999948542,3.208052092536989e-06,0.0,0.0,2.5835527691604386e-18,0.0,0.0,0.0,0.0,1340.2203139999997,-1340.2203139999997,0.0003676156907215939,0.0,0.0
0.690158607,0.9999999999948542,3.2080520927571146e-06,0.0,0.0,3.7127418339887e-18,0.0,0.0,0.0,0.0,1360.0419800000004,-1360.0419800000004,0.0003676156907468185,0.0,0.0
0.70016254,0.9999999999948542,3.2080520929772385e-06,0.0,0.0,2.5835527702120776e-18,0.0,0.0,0.0,0.0,1380.317214,-1380.317214,0.0003676156907720428,0.0,0.0
0.71009968,0.9999999999948542,3.2080520931973612e-06,0.0,0.0,2.5835527702120776e-18,0.0,0.0,0.0,0.0,1400.32508,-1400.32508,0.00036761569079726706,0.0,0.0
0.720010317,0.9999999999948542,3.208052093417481e-06,0.0,0.0,1.4543637064354542e-18,0.0,0.0,0.0,0.0,1420.1993599999998,-1420.1993599999998,0.0003676156908224909,0.0,0.0
0.730023834,0.9999999999948542,3.2080520936375905e-06,0.0,0.0,-8.040144232210709e-19,0.0,0.0,0.0,0.0,1440.0206340000002,-1440.0206340000002,0.00036761569084771357,0.0,0.0
0.740072263,0.9999999999948542,3.2080520938576963e-06,0.0,0.0,-8.040144232210709e-19,0.0,0.0,0.0,0.0,1460.0476680000002,-1460.0476680000002,0.00036761569087293586,0.0,0.0
0.750137414,0.9999999999948542,3.208052094077802e-06,0.0,0.0,-8.0401442427271025e-19,0.0,0.0,0.0,0.0,1480.1445259999998,-1480.1445259999998,0.00036761569089815814,0.0,0.0
0.760194743,0.9999999999948542,3.2080520942979048e-06,0.0,0.0,-1.9332034891009726e-18,0.0,0.0,0.0,0.0,1500.2748279999998,-1500.2748279999998,0.00036761569092338004,0.0,0.0
0.770156135,0.9999999999948542,3.208052094518018e-06,0.0,0.0,1.4543637095903718e-18,0.0,0.0,0.0,0.0,1520.389486,-1520.389486,0.0003676156909486032,0.0,0.0
0.780163784,0.9999999999948542,3.2080520947381307e-06,0.0,0.0,3.2517464371046986e-19,0.0,0.0,0.0,0.0,1540.31227,-1540.31227,0.0003676156909738262,0.0,0.0
0.790162045,0.9999999999948542,3.2080520949582407e-06,0.0,0.0,3.2517464476210912e-19,0.0,0.0,0.0,0.0,1560.3275680000002,-1560.3275680000002,0.00036761569099904895,0.0,0.0
0.800070237,0.9999999999948542,3.2080520951783477e-06,0.0,0.0,-8.040144200661533e-19,0.0,0.0,0.0,0.0,1580.3240899999998,-1580.3240899999998,0.00036761569102427134,0.0,0.0
0.810190545,0.9999999999948542,3.2080520953984534e-06,0.0,0.0,-8.040144148079569e-19,0.0,0.0,0.0,0.0,1600.140474,-1600.140474,0.0003676156910494936,0.0,0.0
0.820060598,0.9999999999948542,3.208052095618559e-06,0.0,0.0,-8.040144158595962e-19,0.0,0.0,0.0,0.0,1620.3810899999999,-1620.3810899999999,0.00036761569107471585,0.0,0.0
0.830160369,0.9999999999948542,3.2080520958386683e-06,0.0,0.0,3.251746489686662e-19,0.0,0.0,0.0,0.0,1640.1211960000003,-1640.1211960000003,0.0003676156910999385,0.0,0.0
0.840118827,0.9999999999948542,3.2080520960587715e-06,0.0,0.0,-1.933203480687859e-18,0.0,0.0,0.0,0.0,1660.3207380000001,-1660.3207380000001,0.0003676156911251605,0.0,0.0
0.85005851,0.9999999999948542,3.2080520962788866e-06,0.0,0.0,1.4543637137969285e-18,0.0,0.0,0.0,0.0,1680.237654,-1680.237654,0.00036761569115038384,0.0,0.0
0.860052467,0.9999999999948542,3.2080520964989982e-06,0.0,0.0,3.2517465107194433e-19,0.0,0.0,0.0,0.0,1700.11702,-1700.11702,0.0003676156911756068,0.0,0.0
0.870056107,0.9999999999948542,3.208052096719115e-06,0.0,0.0,1.454363715900207e-18,0.0,0.0,0.0,0.0,1720.1049340000002,-1720.1049340000002,0.0003676156912008303,0.0,0.0
0.880073926,0.9999999999948542,3.2080520969392267e-06,0.0,0.0,3.2517465107194423e-19,0.0,0.0,0.0,0.0,1740.1122140000002,-1740.1122140000002,0.00036761569122605324,0.0,0.0
0.890068667,0.9999999999948542,3.2080520971593434e-06,0.0,0.0,1.4543637169518462e-18,0.0,0.0,0.0,0.0,1760.147852,-1760.147852,0.00036761569125127677,0.0,0.0
0.900051476,0.9999999999948542,3.2080520973794653e-06,0.0,0.0,2.5835527817801088e-18,0.0,0.0,0.0,0.0,1780.1373339999996,-1780.1373339999996,0.00036761569127650084,0.0,0.0
0.910051693,0.9999999999948542,3.208052097599578e-06,0.0,0.0,3.25174654226862e-19,0.0,0.0,0.0,0.0,1800.1029519999997,-1800.1029519999997,0.0003676156913017239,0.0,0.0
0.920089951,0.9999999999948542,3.2080520978196844e-06,0.0,0.0,-8.040144106014004e-19,0.0,0.0,0.0,0.0,1820.1033859999998,-1820.1033859999998,0.0003676156913269463,0.0,0.0
0.930071978,0.9999999999948542,3.2080520980397867e-06,0.0,0.0,-1.933203475429663e-18,0.0,0.0,0.0,0.0,1840.179902,-1840.179902,0.0003676156913521681,0.0,0.0
0.940069945,0.9999999999948542,3.2080520982598916e-06,0.0,0.0,-8.040144106014005e-19,0.0,0.0,0.0,0.0,1860.143956,-1860.143956,0.0003676156913773903,0.0,0.0
0.949984984,0.9999999999948542,3.208052098480011e-06,0.0,0.0,2.5835527828317474e-18,0.0,0.0,0.0,0.0,1880.13989,-1880.13989,0.0003676156914026141,0.0,0.0
0.960008671,0.9999999999948542,3.2080520987001302e-06,0.0,0.0,1.4543637180034848e-18,0.0,0.0,0.0,0.0,1899.9699679999999,-1899.9699679999999,0.0003676156914278379,0.0,0.0
0.970051037,0.9999999999948542,3.2080520989202487e-06,0.0,0.0,1.4543637180034848e-18,0.0,0.0,0.0,0.0,1920.0173419999999,-1920.0173419999999,0.00036761569145306165,0.0,0.0
0.980122643,0.9999999999948542,3.208052099140367e-06,0.0,0.0,1.4543637222100418e-18,0.0,0.0,0.0,0.0,1940.102074,-1940.102074,0.00036761569147828534,0.0,0.0
0.990054893,0.9999999999948542,3.2080520993604856e-06,0.0,0.0,1.4543637211584026e-18,0.0,0.0,0.0,0.0,1960.2452859999999,-1960.2452859999999,0.0003676156915035091,0.0,0.0
1.000006506,0.9999999999948542,3.208052099580604e-06,0.0,0.0,1.4543637201067634e-18,0.0,0.0,0.0,0.0,1980.109786,-1980.109786,0.0003676156915287328,0.0,0.0
1.0100742,0.9999999999948542,3.2080520998007225e-06,0.0,0.0,1.4543637211584026e-18,0.0,0.0,0.0,0.0,2000.0130120000001,-2000.0130120000001,0.00036761569155395647,0.0,0.0
1.020172015,0.9999999999948542,3.2080521000208448e-06,0.0,0.0,2.5835527859866653e-18,0.0,0.0,0.0,0.0,2020.1484,-2020.1484,0.00036761569157918065,0.0,0.0
1.030154238,0.9999999999948542,3.2080521002409636e-06,0.0,0.0,1.4543637211584026e-18,0.0,0.0,0.0,0.0,2040.3440299999997,-2040.3440299999997,0.0003676156916044044,0.0,0.0
1.040074459,0.9999999999948542,3.2080521004610707e-06,0.0,0.0,-8.040144053432046e-19,0.0,0.0,0.0,0.0,2060.3084759999997,-2060.3084759999997,0.00036761569162962684,0.0,0.0
1.050083184,0.9999999999948542,3.2080521006811726e-06,0.0,0.0,-1.9332034712231065e-18,0.0,0.0,0.0,0.0,2080.148918,-2080.148918,0.00036761569165484864,0.0,0.0
1.0600834,0.9999999999948542,3.208052100901274e-06,0.0,0.0,-1.933203470171467e-18,0.0,0.0,0.0,0.0,2100.1663679999997,-2100.1663679999997,0.00036761569168007043,0.0,0.0
1.07008039,0.9999999999948542,3.208052101121391e-06,0.0,0.0,1.4543637253649595e-18,0.0,0.0,0.0,0.0,2120.1668,-2120.1668,0.00036761569170529396,0.0,0.0
1.08006447,0.9999999999948542,3.208052101341517e-06,0.0,0.0,3.712741855021483e-18,0.0,0.0,0.0,0.0,2140.16078,-2140.16078,0.0003676156917305185,0.0,0.0
1.090066349,0.9999999999948542,3.2080521015616515e-06,0.0,0.0,4.8419309198497475e-18,0.0,0.0,0.0,0.0,2160.12894,-2160.12894,0.0003676156917557441,0.0,0.0
1.100049354,0.9999999999948542,3.2080521017817754e-06,0.0,0.0,2.5835527912448616e-18,0.0,0.0,0.0,0.0,2180.132698,-2180.132698,0.00036761569178096846,0.0,0.0
1.110062675,0.9999999999948542,3.208052102001902e-06,0.0,0.0,3.712741856073123e-18,0.0,0.0,0.0,0.0,2200.098708,-2200.098708,0.00036761569180619307,0.0,0.0
1.120071204,0.9999999999948542,3.208052102222029e-06,0.0,0.0,3.712741853969844e-18,0.0,0.0,0.0,0.0,2220.1253500000003,-2220.1253500000003,0.0003676156918314178,0.0,0.0
1.130071617,0.9999999999948542,3.2080521024421634e-06,0.0,0.0,4.841930917746469e-18,0.0,0.0,0.0,0.0,2240.142408,-2240.142408,0.00036761569185664333,0.0,0.0
1.140003867,0.9999999999948542,3.208052102662299e-06,0.0,0.0,4.841930918798108e-18,0.0,0.0,0.0,0.0,2260.143234,-2260.143234,0.00036761569188186897,0.0,0.0
1.150182068,0.9999999999948542,3.208052102882438e-06,0.0,0.0,5.9711199825747305e-18,0.0,0.0,0.0,0.0,2280.007734,-2280.007734,0.0003676156919070951,0.0,0.0
1.160219251,0.9999999999948542,3.2080521031025776e-06,0.0,0.0,5.97111998362637e-18,0.0,0.0,0.0,0.0,2300.3641359999997,-2300.3641359999997,0.00036761569193232124,0.0,0.0
1.170065638,0.9999999999948542,3.2080521031025776e-06,0.0,0.0,5.97111998362637e-18,0.0,0.0,0.0,0.0,2320.438502,-2320.438502,0.00036761569193232124,0.0,0.0
1.180179491,0.9999999999948542,3.2080521033227173e-06,0.0,0.0,5.97111998362637e-18,0.0,0.0,0.0,0.0,2340.131276,-2340.131276,0.00036761569195754737,0.0,0.0
1.190107144,0.9999999999948542,3.2080521035428527e-06,0.0,0.0,4.8419309198497475e-18,0.0,0.0,0.0,0.0,2360.358982,-2360.358982,0.000367615691982773,0.0,0.0
1.200105601,0.9999999999948542,3.2080521037629923e-06,0.0,0.0,5.971119984678009e-18,0.0,0.0,0.0,0.0,2380.214288,-2380.214288,0.00036761569200799914,0.0,0.0
1.210072665,0.9999999999948542,3.208052103983119e-06,0.0,0.0,3.7127418560731234e-18,0.0,0.0,0.0,0.0,2400.211202,-2400.211202,0.00036761569203322387,0.0,0.0
1.220090289,0.9999999999948542,3.2080521042032758e-06,0.0,0.0,9.358687180214438e-18,0.0,0.0,0.0,0.0,2420.14533,-2420.14533,0.00036761569205845195,0.0,0.0
1.230094418,0.9999999999948542,3.2080521044234323e-06,0.0,0.0,9.358687180214438e-18,0.0,0.0,0.0,0.0,2440.1805780000004,-2440.1805780000004,0.00036761569208368003,0.0,0.0
1.240065296,0.9999999999948542,3.208052104643593e-06,0.0,0.0,1.04878762450427e-17,0.0,0.0,0.0,0.0,2460.188836,-2460.188836,0.0003676156921089086,0.0,0.0
1.249977792,0.9999999999948542,3.208052104863754e-06,0.0,0.0,1.04878762450427e-17,0.0,0.0,0.0,0.0,2480.1305920000004,-2480.1305920000004,0.0003676156921341372,0.0,0.0
1.26018318,0.9999999999948542,3.208052105083916e-06,0.0,0.0,1.2746254375750863e-17,0.0,0.0,0.0,0.0,2499.955584,-2499.955584,0.00036761569215936586,0.0,0.0
1.270029879,0.9999999999948542,3.2080521053040895e-06,0.0,0.0,1.2746254375750863e-17,0.0,0.0,0.0,0.0,2520.3663600000004,-2520.3663600000004,0.0003676156921845959,0.0,0.0
1.28015889,0.9999999999948542,3.2080521055242597e-06,0.0,0.0,1.3875443441630768e-17,0.0,0.0,0.0,0.0,2540.059758,-2540.059758,0.00036761569220982555,0.0,0.0
1.290133292,0.9999999999793657,6.4240529026532975e-06,0.0,0.0,0.006432001593541285,0.0,0.0,0.0,0.0,2560.31778,-2560.31778,0.0007361422373866628,0.0,0.0
1.30006623,0.9999999999793657,6.424052907625893e-06,0.0,0.0,-2.3261133326475864e-16,0.0,0.0,0.0,0.0,2580.266584,-2580.266584,0.0007361422379564803,0.0,0.0
1.310061656,0.9999999999793657,6.424052909392152e-06,0.0,0.0,-2.3148214420098204e-16,0.0,0.0,0.0,0.0,2600.1324600000003,-2600.1324600000003,0.0007361422381588786,0.0,0.0
1.32008515,0.9999999999793657,6.42405291115841e-06,0.0,0.0,-2.314821442020337e-16,0.0,0.0,0.0,0.0,2620.123312,-2620.123312,0.000736142238361277,0.0,0.0
1.330074611,0.9999999999793657,6.424052912924669e-06,0.0,0.0,-2.3261133326686194e-16,0.0,0.0,0.0,0.0,2640.1702999999998,-2640.1702999999998,0.0007361422385636753,0.0,0.0
1.340081969,0.9999999999793657,6.4240529146909274e-06,0.0,0.0,-2.314821442020337e-16,0.0,0.0,0.0,0.0,2660.149222,-2660.149222,0.0007361422387660736,0.0,0.0
1.350056664,0.9999999999793657,6.424052916457186e-06,0.0,0.0,-2.3148214420308534e-16,0.0,0.0,0.0,0.0,2680.1639380000006,-2680.1639380000006,0.0007361422389684719,0.0,0.0
1.360084167,0.9999999999793657,6.4240529182234445e-06,0.0,0.0,-2.3148214419993044e-16,0.0,0.0,0.0,0.0,2700.113328,-2700.113328,0.0007361422391708702,0.0,0.0
1.370134944,0.9999999999538448,9.607824531782338e-06,0.0,0.0,6.348043618542576e-12,0.0,0.0,0.0,0.0,2720.168334,-2720.168334,0.001100975591963707,0.0,0.0
1.37998378,0.9999999999538448,9.607824537693188e-06,0.0,0.0,-3.6826562385539277e-16,0.0,0.0,0.0,0.0,2740.269888,-2740.269888,0.0011009755926410405,0.0,0.0
1.390123255,0.9999999999538448,9.607824543604038e-06,0.0,0.0,-3.6826562385539277e-16,0.0,0.0,0.0,0.0,2759.9675600000005,-2759.9675600000005,0.001100975593318374,0.0,0.0
1.400099417,0.9999999999538448,9.607824549514892e-06,0.0,0.0,-3.671364347895128e-16,0.0,0.0,0.0,0.0,2780.24651,-2780.24651,0.0011009755939957078,0.0,0.0
1.409974168,0.9999999999538448,9.607824555425759e-06,0.0,0.0,-3.6713643479056447e-16,0.0,0.0,0.0,0.0,2800.1988340000003,-2800.1988340000003,0.0011009755946730434,0.0,0.0
1.420194908,0.9999999999538448,9.607824561336622e-06,0.0,0.0,-3.6826562385539277e-16,0.0,0.0,0.0,0.0,2819.948336,-2819.948336,0.0011009755953503785,0.0,0.0
1.430152881,0.9999999999538448,9.607824567247472e-06,0.0,0.0,-3.6826562385539277e-16,0.0,0.0,0.0,0.0,2840.389816,-2840.389816,0.001100975596027712,0.0,0.0
1.440100389,0.9999999999184697,1.2769520137363596e-05,0.0,0.0,6.3038671505033506e-12,0.0,0.0,0.0,0.0,2860.3057620000004,-2860.3057620000004,0.0014632792205962655,0.0,0.0
1.450053864,0.9999999999184697,1.2769520151243044e-05,0.0,0.0,-3.857531171402023e-16,0.0,0.0,0.0,0.0,2880.200778,-2880.200778,0.0014632792221867333,0.0,0.0
1.460059265,0.9999999999184697,1.2769520165122492e-05,0.0,0.0,-3.846239280753741e-16,0.0,0.0,0.0,0.0,2900.107728,-2900.107728,0.0014632792237772008,0.0,0.0
1.470126961,0.9999999999184697,1.276952017900194e-05,0.0,0.0,-3.8462392807642575e-16,0.0,0.0,0.0,0.0,2920.1185299999997,-2920.1185299999997,0.0014632792253676684,0.0,0.0
1.48017588,0.9999999999184697,1.2769520192881391e-05,0.0,0.0,-3.8236554994256264e-16,0.0,0.0,0.0,0.0,2940.253922000001,-2940.253922000001,0.0014632792269581364,0.0,0.0
1.490077426,0.9999999999184697,1.2769520206760856e-05,0.0,0.0,-3.8236554994256264e-16,0.0,0.0,0.0,0.0,2960.35176,-2960.35176,0.0014632792285486059,0.0,0.0
1.500052512,0.9999999999184697,1.2769520220640321e-05,0.0,0.0,-3.8236554994571755e-16,0.0,0.0,0.0,0.0,2980.154852,-2980.154852,0.0014632792301390754,0.0,0.0
1.510013614,0.9999999999184697,1.2769520234519786e-05,0.0,0.0,-3.812363608808893e-16,0.0,0.0,0.0,0.0,3000.105024,-3000.105024,0.001463279231729545,0.0,0.0
1.520070259,0.9999999999184697,1.2769520248399256e-05,0.0,0.0,-3.801071718160611e-16,0.0,0.0,0.0,0.0,3020.0272280000004,-3020.0272280000004,0.001463279233320015,0.0,0.0
1.530090818,0.9999999999184697,1.2769520262278733e-05,0.0,0.0,-3.812363608808893e-16,0.0,0.0,0.0,0.0,3040.1405179999997,-3040.1405179999997,0.0014632792349104859,0.0,0.0
1.540137977,0.9999999999184697,1.2769520276158203e-05,0.0,0.0,-3.801071718139578e-16,0.0,0.0,0.0,0.0,3060.181636,-3060.181636,0.001463279236500956,0.0,0.0
1.550086855,0.9999999999184697,1.2769520290037684e-05,0.0,0.0,-3.801071718139578e-16,0.0,0.0,0.0,0.0,3080.275954,-3080.275954,0.0014632792380914277,0.0,0.0
1.560103014,0.9999999999184697,1.2769520303917166e-05,0.0,0.0,-3.8010717181500944e-16,0.0,0.0,0.0,0.0,3100.1737099999996,-3100.1737099999996,0.0014632792396818992,0.0,0.0
1.570098245,0.9999999999184697,1.2769520317796648e-05,0.0,0.0,-3.801071718160611e-16,0.0,0.0,0.0,0.0,3120.206028,-3120.206028,0.0014632792412723706,0.0,0.0
1.580048786,0.9999999999184697,1.2769520331676125e-05,0.0,0.0,-3.812363608840442e-16,0.0,0.0,0.0,0.0,3140.1964900000003,-3140.1964900000003,0.0014632792428628414,0.0,0.0
1.590052623,0.9999999999184697,1.276952034555559e-05,0.0,0.0,-3.8123636088299254e-16,0.0,0.0,0.0,0.0,3160.097572,-3160.097572,0.001463279244453311,0.0,0.0
1.600067804,0.9999999999184697,1.2769520359435055e-05,0.0,0.0,-3.8236554995202735e-16,0.0,0.0,0.0,0.0,3180.1052460000005,-3180.1052460000005,0.0014632792460437805,0.0,0.0
1.61005482,0.9999999999184697,1.276952037331452e-05,0.0,0.0,-3.82365549953079e-16,0.0,0.0,0.0,0.0,3200.135608,-3200.135608,0.00146327924763425,0.0,0.0
1.620071957,0.9999999999184697,1.276952038719399e-05,0.0,0.0,-3.8010717182342254e-16,0.0,0.0,0.0,0.0,3220.1096400000006,-3220.1096400000006,0.0014632792492247201,0.0,0.0
1.63007511,0.9999999999184697,1.2769520401073472e-05,0.0,0.0,-3.7897798275964594e-16,0.0,0.0,0.0,0.0,3240.1439139999998,-3240.1439139999998,0.0014632792508151916,0.0,0.0
1.640074057,0.9999999999184697,1.2769520414952954e-05,0.0,0.0,-3.789779827585943e-16,0.0,0.0,0.0,0.0,3260.1502199999995,-3260.1502199999995,0.001463279252405663,0.0,0.0
1.650124639,0.9999999999184697,1.2769520428832435e-05,0.0,0.0,-3.7897798275964594e-16,0.0,0.0,0.0,0.0,3280.148114,-3280.148114,0.0014632792539961345,0.0,0.0
1.659980027,0.9999999999184697,1.2769520442711917e-05,0.0,0.0,-3.7784879369481764e-16,0.0,0.0,0.0,0.0,3300.2492779999993,-3300.2492779999993,0.001463279255586606,0.0,0.0
1.67001682,0.9999999999184697,1.27695204565914e-05,0.0,0.0,-3.789779827585943e-16,0.0,0.0,0.0,0.0,3319.960054,-3319.960054,0.0014632792571770774,0.0,0.0
1.680119721,0.9999999999184697,1.2769520470470881e-05,0.0,0.0,-3.789779827585943e-16,0.0,0.0,0.0,0.0,3340.03364,-3340.03364,0.001463279258767549,0.0,0.0
1.690077302,0.9999999999184697,1.2769520484350363e-05,0.0,0.0,-3.7784879369271434e-16,0.0,0.0,0.0,0.0,3360.239442,-3360.239442,0.0014632792603580204,0.0,0.0
1.700120647,0.9999999999184697,1.2769520498229845e-05,0.0,0.0,-3.7784879369271434e-16,0.0,0.0,0.0,0.0,3380.154604,-3380.154604,0.0014632792619484918,0.0,0.0
1.710069721,0.9999999999184697,1.2769520512109327e-05,0.0,0.0,-3.8010717181816434e-16,0.0,0.0,0.0,0.0,3400.2412940000004,-3400.2412940000004,0.0014632792635389633,0.0,0.0
1.720092823,0.9999999999184697,1.2769520525988802e-05,0.0,0.0,-3.812363608819409e-16,0.0,0.0,0.0,0.0,3420.1394419999997,-3420.1394419999997,0.001463279265129434,0.0,0.0
1.730058521,0.9999999999184697,1.2769520539868267e-05,0.0,0.0,-3.812363608850958e-16,0.0,0.0,0.0,0.0,3440.185646000001,-3440.185646000001,0.0014632792667199036,0.0,0.0
1.740104604,0.9999999999184697,1.2769520553747738e-05,0.0,0.0,-3.801071718202676e-16,0.0,0.0,0.0,0.0,3460.117042,-3460.117042,0.0014632792683103738,0.0,0.0
1.750204962,0.9999999999184697,1.2769520567627214e-05,0.0,0.0,-3.812363608850958e-16,0.0,0.0,0.0,0.0,3480.2092079999998,-3480.2092079999998,0.0014632792699008446,0.0,0.0
1.760055265,0.9999999999184697,1.2769520581506678e-05,0.0,0.0,-3.8236554994992405e-16,0.0,0.0,0.0,0.0,3500.4099239999996,-3500.4099239999996,0.001463279271491314,0.0,0.0
1.770051474,0.9999999999184697,1.2769520595386143e-05,0.0,0.0,-3.8236554994992405e-16,0.0,0.0,0.0,0.0,3520.1105300000004,-3520.1105300000004,0.0014632792730817836,0.0,0.0
1.779987053,0.9999999999184697,1.2769520609265608e-05,0.0,0.0,-3.8236554994992405e-16,0.0,0.0,0.0,0.0,3540.102948,-3540.102948,0.001463279274672253,0.0,0.0
1.790219821,0.9999999999184697,1.2769520623145073e-05,0.0,0.0,-3.8349473901475235e-16,0.0,0.0,0.0,0.0,3559.9741059999997,-3559.9741059999997,0.0014632792762627226,0.0,0.0
1.799989055,0.9999999999184697,1.2769520637024538e-05,0.0,0.0,-3.8349473901475235e-16,0.0,0.0,0.0,0.0,3580.4396420000003,-3580.4396420000003,0.0014632792778531921,0.0,0.0
1.810146132,0.9999999999184697,1.2769520650904003e-05,0.0,0.0,-3.83494739015804e-16,0.0,0.0,0.0,0.0,3599.97811,-3599.97811,0.0014632792794436616,0.0,0.0
1.820005432,0.9999999999184697,1.2769520664783468e-05,0.0,0.0,-3.8349473901475235e-16,0.0,0.0,0.0,0.0,3620.292264,-3620.292264,0.0014632792810341311,0.0,0.0
1.830010932,0.9999999999184697,1.2769520678662925e-05,0.0,0.0,-3.8462392807642575e-16,0.0,0.0,0.0,0.0,3640.010864,-3640.010864,0.0014632792826245998,0.0,0.0
1.840011346,0.9999999999184697,1.2769520692542373e-05,0.0,0.0,-3.846239280774774e-16,0.0,0.0,0.0,0.0,3660.0218639999994,-3660.0218639999994,0.0014632792842150673,0.0,0.0
2.579817104,0.9999999999184697,1.2769520692542373e-05,0.0,0.0,-3.846239280774774e-16,0.0,0.0,0.0,0.0,3680.022692,-3680.022692,0.0014632792842150673,0.0,0.0
2.580379213,0.9999999999184697,1.276952070642182e-05,0.0,0.0,-3.8575311714230555e-16,0.0,0.0,0.0,0.0,3680.022692,-3680.022692,0.001463279285805535,0.0,0.0
2.590065421,0.9999999999184697,1.276952070642182e-05,0.0,0.0,-3.8575311714230555e-16,0.0,0.0,0.0,0.0,5160.758426000001,-5160.758426000001,0.001463279285805535,0.0,0.0
2.600098303,0.9999999999184697,1.276952072030132e-05,0.0,0.0,-3.6768609208822726e-16,0.0,0.0,0.0,0.0,5180.130842,-5180.130842,0.0014632792873960083,0.0,0.0
2.610108887,0.9999999999184697,1.2769520734180852e-05,0.0,0.0,-3.6768609208822726e-16,0.0,0.0,0.0,0.0,5200.196606,-5200.196606,0.0014632792889864856,0.0,0.0
2.620048671,0.9999999999184697,1.2769520748060385e-05,0.0,0.0,-3.676860920871756e-16,0.0,0.0,0.0,0.0,5220.217774,-5220.217774,0.001463279290576963,0.0,0.0
2.630084094,0.9999999999184697,1.2769520761939917e-05,0.0,0.0,-3.6768609208822726e-16,0.0,0.0,0.0,0.0,5240.097342000001,-5240.097342000001,0.0014632792921674403,0.0,0.0
2.640209878,0.9999999999184697,1.276952077581945e-05,0.0,0.0,-3.6881528115200376e-16,0.0,0.0,0.0,0.0,5260.168188,-5260.168188,0.0014632792937579176,0.0,0.0
2.650171469,0.9999999999184697,1.2769520789699e-05,0.0,0.0,-3.6655690302129566e-16,0.0,0.0,0.0,0.0,5280.419755999999,-5280.419755999999,0.0014632792953483968,0.0,0.0
2.660085142,0.9999999999184697,1.276952080357855e-05,0.0,0.0,-3.665569030223473e-16,0.0,0.0,0.0,0.0,5300.342938000001,-5300.342938000001,0.0014632792969388759,0.0,0.0
2.67009514,0.9999999999184697,1.2769520817458082e-05,0.0,0.0,-3.6768609208612396e-16,0.0,0.0,0.0,0.0,5320.170284,-5320.170284,0.0014632792985293532,0.0,0.0
2.680054872,0.9999999999184697,1.2769520831337632e-05,0.0,0.0,-3.6655690302129566e-16,0.0,0.0,0.0,0.0,5340.190280000001,-5340.190280000001,0.0014632793001198325,0.0,0.0
2.690054504,0.9999999999184697,1.2769520845217181e-05,0.0,0.0,-3.6655690302129566e-16,0.0,0.0,0.0,0.0,5360.109744000001,-5360.109744000001,0.0014632793017103117,0.0,0.0
2.700121809,0.9999999999184697,1.2769520859096714e-05,0.0,0.0,-3.676860920850723e-16,0.0,0.0,0.0,0.0,5380.109008,-5380.109008,0.001463279303300789,0.0,0.0
2.710076358,0.9999999999184697,1.2769520872976247e-05,0.0,0.0,-3.676860920850723e-16,0.0,0.0,0.0,0.0,5400.243618,-5400.243618,0.0014632793048912664,0.0,0.0
2.720109337,0.9999999999184697,1.2769520886855763e-05,0.0,0.0,-3.7220284834438537e-16,0.0,0.0,0.0,0.0,5420.152716,-5420.152716,0.0014632793064817417,0.0,0.0
2.730142414,0.9999999999184697,1.2769520900735278e-05,0.0,0.0,-3.7333203741026517e-16,0.0,0.0,0.0,0.0,5440.218673999999,-5440.218673999999,0.001463279308072217,0.0,0.0
2.740080633,0.9999999999184697,1.2769520914614794e-05,0.0,0.0,-3.7333203741026517e-16,0.0,0.0,0.0,0.0,5460.284827999999,-5460.284827999999,0.0014632793096626922,0.0,0.0
2.750064031,0.9999999999184697,1.2769520928494293e-05,0.0,0.0,-3.7446122647299017e-16,0.0,0.0,0.0,0.0,5480.161266,-5480.161266,0.0014632793112531657,0.0,0.0
2.760095348,0.9999999999184697,1.2769520942373792e-05,0.0,0.0,-3.7559041553887008e-16,0.0,0.0,0.0,0.0,5500.128062000001,-5500.128062000001,0.001463279312843639,0.0,0.0
2.770533675,0.9999999999184697,1.276952095625329e-05,0.0,0.0,-3.7559041553992173e-16,0.0,0.0,0.0,0.0,5520.190696000001,-5520.190696000001,0.0014632793144341125,0.0,0.0
2.780080725,0.9999999999184697,1.276952097013279e-05,0.0,0.0,-3.7559041553992173e-16,0.0,0.0,0.0,0.0,5541.067349999999,-5541.067349999999,0.001463279316024586,0.0,0.0
2.790093364,0.9999999999552985,9.455311130346013e-06,0.0,0.0,-3.578789666363982e-16,0.0,0.0,0.0,0.0,5560.16145,-5560.16145,0.0010834988435199414,0.0,0.0
2.800074806,0.9999999999552985,9.455311135979782e-06,0.0,0.0,-3.601373447660547e-16,0.0,0.0,0.0,0.0,5580.186728000001,-5580.186728000001,0.0010834988441655237,0.0,0.0
2.810078448,0.9999999999552985,9.455311141613549e-06,0.0,0.0,-3.612665338319346e-16,0.0,0.0,0.0,0.0,5600.149612,-5600.149612,0.0010834988448111059,0.0,0.0
2.820077591,0.9999999999552985,9.455311147247302e-06,0.0,0.0,-3.6013734476710633e-16,0.0,0.0,0.0,0.0,5620.156896,-5620.156896,0.0010834988454566864,0.0,0.0
2.830078787,0.9999999999552985,9.45531115288107e-06,0.0,0.0,-3.578789666385015e-16,0.0,0.0,0.0,0.0,5640.155181999999,-5640.155181999999,0.0010834988461022688,0.0,0.0
2.840076855,0.9999999999552985,9.455311158514841e-06,0.0,0.0,-3.567497775736733e-16,0.0,0.0,0.0,0.0,5660.157574,-5660.157574,0.0010834988467478513,0.0,0.0
2.850094285,0.9999999999552985,9.455311164148627e-06,0.0,0.0,-3.544913994398102e-16,0.0,0.0,0.0,0.0,5680.15371,-5680.15371,0.0010834988473934356,0.0,0.0
2.860014216,0.9999999999552985,9.455311169782412e-06,0.0,0.0,-3.544913994366553e-16,0.0,0.0,0.0,0.0,5700.18857,-5700.18857,0.0010834988480390199,0.0,0.0
2.870008959,0.9999999999552985,9.455311175416198e-06,0.0,0.0,-3.5449139943981026e-16,0.0,0.0,0.0,0.0,5720.028432000001,-5720.028432000001,0.0010834988486846042,0.0,0.0
2.8801189,0.9999999999552985,9.455311181049987e-06,0.0,0.0,-3.53362210374982e-16,0.0,0.0,0.0,0.0,5740.017918,-5740.017918,0.0010834988493301887,0.0,0.0
2.890181706,0.9999999999552985,9.455311186683786e-06,0.0,0.0,-3.5449139943981026e-16,0.0,0.0,0.0,0.0,5760.237799999999,-5760.237799999999,0.0010834988499757745,0.0,0.0
2.900231505,0.9999999999552985,9.455311192317571e-06,0.0,0.0,-3.5449139943981026e-16,0.0,0.0,0.0,0.0,5780.363412000001,-5780.363412000001,0.0010834988506213587,0.0,0.0
2.910104301,0.9999999999552985,9.455311197951357e-06,0.0,0.0,-3.5449139943981026e-16,0.0,0.0,0.0,0.0,5800.4630099999995,-5800.4630099999995,0.001083498851266943,0.0,0.0
2.920081636,0.9999999999552985,9.455311203585146e-06,0.0,0.0,-3.53362210374982e-16,0.0,0.0,0.0,0.0,5820.208601999999,-5820.208601999999,0.0010834988519125277,0.0,0.0
2.930068359,0.9999999999552985,9.455311209218945e-06,0.0,0.0,-3.544913994408619e-16,0.0,0.0,0.0,0.0,5840.163272,-5840.163272,0.0010834988525581135,0.0,0.0
2.940114443,0.9999999999552985,9.45531121485273e-06,0.0,0.0,-3.5449139943981026e-16,0.0,0.0,0.0,0.0,5860.136718,-5860.136718,0.0010834988532036978,0.0,0.0
2.950108305,0.9999999999552985,9.45531122048652e-06,0.0,0.0,-3.53362210374982e-16,0.0,0.0,0.0,0.0,5880.228886000001,-5880.228886000001,0.0010834988538492825,0.0,0.0
2.960021097,0.9999999999552985,9.455311226120322e-06,0.0,0.0,-3.511038322442739e-16,0.0,0.0,0.0,0.0,5900.2166099999995,-5900.2166099999995,0.0010834988544948688,0.0,0.0
2.970184824,0.9999999999552985,9.455311231754124e-06,0.0,0.0,-3.522330213091021e-16,0.0,0.0,0.0,0.0,5920.042194,-5920.042194,0.001083498855140455,0.0,0.0
2.980094194,0.9999999999552985,9.455311237387927e-06,0.0,0.0,-3.511038322442739e-16,0.0,0.0,0.0,0.0,5940.369648,-5940.369648,0.0010834988557860412,0.0,0.0
2.990127173,0.9999999999552985,9.455311243021734e-06,0.0,0.0,-3.4997464317944555e-16,0.0,0.0,0.0,0.0,5960.188387999999,-5960.188387999999,0.0010834988564316279,0.0,0.0
3.000099326,0.9999999999552985,9.455311248655554e-06,0.0,0.0,-3.4884545411461735e-16,0.0,0.0,0.0,0.0,5980.254346,-5980.254346,0.001083498857077216,0.0,0.0
3.010088787,0.9999999999552985,9.455311254289373e-06,0.0,0.0,-3.4771626504873744e-16,0.0,0.0,0.0,0.0,6000.198651999999,-6000.198651999999,0.0010834988577228043,0.0,0.0
3.02011052,0.9999999999552985,9.455311259923192e-06,0.0,0.0,-3.499746431804972e-16,0.0,0.0,0.0,0.0,6020.177573999999,-6020.177573999999,0.0010834988583683924,0.0,0.0
3.030120225,0.9999999999552985,9.455311265557012e-06,0.0,0.0,-3.499746431804972e-16,0.0,0.0,0.0,0.0,6040.22104,-6040.22104,0.0010834988590139806,0.0,0.0
3.040084261,0.9999999999552985,9.455311271190831e-06,0.0,0.0,-3.48845454115669e-16,0.0,0.0,0.0,0.0,6060.24045,-6060.24045,0.0010834988596595686,0.0,0.0
3.050083697,0.9999999999552985,9.45531127682465e-06,0.0,0.0,-3.4997464317944555e-16,0.0,0.0,0.0,0.0,6080.168521999999,-6080.168521999999,0.0010834988603051568,0.0,0.0
3.060119023,0.9999999999552985,9.45531128245847e-06,0.0,0.0,-3.4884545411672065e-16,0.0,0.0,0.0,0.0,6100.167394,-6100.167394,0.001083498860950745,0.0,0.0
3.07010868,0.9999999999552985,9.45531128809229e-06,0.0,0.0,-3.4884545411672065e-16,0.0,0.0,0.0,0.0,6120.2380459999995,-6120.2380459999995,0.0010834988615963331,0.0,0.0
3.08010841,0.9999999999552985,9.455311293726109e-06,0.0,0.0,-3.488454541177723e-16,0.0,0.0,0.0,0.0,6140.21736,-6140.21736,0.0010834988622419213,0.0,0.0
3.090050638,0.9999999999552985,9.455311299359928e-06,0.0,0.0,-3.4771626505294404e-16,0.0,0.0,0.0,0.0,6160.21682,-6160.21682,0.0010834988628875095,0.0,0.0
3.100095841,0.9999999999552985,9.455311304993753e-06,0.0,0.0,-3.454578869232875e-16,0.0,0.0,0.0,0.0,6180.101276,-6180.101276,0.0010834988635330981,0.0,0.0
3.110088921,0.9999999999552985,9.45531131062759e-06,0.0,0.0,-3.4432869785845924e-16,0.0,0.0,0.0,0.0,6200.191682000001,-6200.191682000001,0.0010834988641786883,0.0,0.0
3.120072124,0.9999999999552985,9.455311316261426e-06,0.0,0.0,-3.4432869785845924e-16,0.0,0.0,0.0,0.0,6220.177842,-6220.177842,0.0010834988648242784,0.0,0.0
3.130092977,0.9999999999552985,9.455311321895262e-06,0.0,0.0,-3.4432869785845924e-16,0.0,0.0,0.0,0.0,6240.1442480000005,-6240.1442480000005,0.0010834988654698685,0.0,0.0
3.140124391,0.9999999999552985,9.455311327529098e-06,0.0,0.0,-3.443286978574076e-16,0.0,0.0,0.0,0.0,6260.185954,-6260.185954,0.0010834988661154584,0.0,0.0
3.150143581,0.9999999999552985,9.455311333162935e-06,0.0,0.0,-3.4432869785845924e-16,0.0,0.0,0.0,0.0,6280.248782000001,-6280.248782000001,0.0010834988667610486,0.0,0.0
3.160018528,0.9999999999552985,9.455311338796771e-06,0.0,0.0,-3.4432869785845924e-16,0.0,0.0,0.0,0.0,6300.287162,-6300.287162,0.0010834988674066387,0.0,0.0
3.170102555,0.9999999999552985,9.455311344430607e-06,0.0,0.0,-3.443286978574076e-16,0.0,0.0,0.0,0.0,6320.037056000001,-6320.037056000001,0.0010834988680522289,0.0,0.0
3.1800573,0.9999999999552985,9.45531135006445e-06,0.0,0.0,-3.431995087925794e-16,0.0,0.0,0.0,0.0,6340.20511,-6340.20511,0.0010834988686978196,0.0,0.0
3.190032387,0.9999999999552985,9.455311355698304e-06,0.0,0.0,-3.4319950879363103e-16,0.0,0.0,0.0,0.0,6360.1146,-6360.1146,0.0010834988693434117,0.0,0.0
3.200059791,0.9999999999552985,9.45531136133215e-06,0.0,0.0,-3.4432869785845924e-16,0.0,0.0,0.0,0.0,6380.064774,-6380.064774,0.001083498869989003,0.0,0.0
3.210067149,0.9999999999552985,9.455311366965987e-06,0.0,0.0,-3.4432869785530434e-16,0.0,0.0,0.0,0.0,6400.119582,-6400.119582,0.001083498870634593,0.0,0.0
3.220074311,0.9999999999552985,9.455311372599823e-06,0.0,0.0,-3.454578869201326e-16,0.0,0.0,0.0,0.0,6420.134298,-6420.134298,0.0010834988712801832,0.0,0.0
3.230120101,0.9999999999552985,9.45531137823366e-06,0.0,0.0,-3.44328697856356e-16,0.0,0.0,0.0,0.0,6440.148622,-6440.148622,0.0010834988719257731,0.0,0.0
3.240123547,0.9999999999552985,9.455311383867506e-06,0.0,0.0,-3.3868275253116307e-16,0.0,0.0,0.0,0.0,6460.240201999999,-6460.240201999999,0.0010834988725713646,0.0,0.0
3.250084257,0.9999999999552985,9.455311389501376e-06,0.0,0.0,-3.3755356346528317e-16,0.0,0.0,0.0,0.0,6480.247094,-6480.247094,0.0010834988732169584,0.0,0.0
3.260096504,0.9999999999552985,9.455311395135253e-06,0.0,0.0,-3.3642437439835167e-16,0.0,0.0,0.0,0.0,6500.168514,-6500.168514,0.0010834988738625533,0.0,0.0
3.270110023,0.9999999999552985,9.455311400769134e-06,0.0,0.0,-3.3755356346317987e-16,0.0,0.0,0.0,0.0,6520.193007999999,-6520.193007999999,0.0010834988745081484,0.0,0.0
3.280085305,0.9999999999552985,9.45531140640301e-06,0.0,0.0,-3.364243743994033e-16,0.0,0.0,0.0,0.0,6540.220046,-6540.220046,0.001083498875153743,0.0,0.0
3.290062738,0.9999999999552985,9.455311412036898e-06,0.0,0.0,-3.3642437440045497e-16,0.0,0.0,0.0,0.0,6560.170610000001,-6560.170610000001,0.001083498875799339,0.0,0.0
3.300084275,0.9999999999552985,9.455311417670785e-06,0.0,0.0,-3.3529518533667827e-16,0.0,0.0,0.0,0.0,6580.125476,-6580.125476,0.0010834988764449349,0.0,0.0
3.310042737,0.9999999999552985,9.455311423304672e-06,0.0,0.0,-3.3642437440045497e-16,0.0,0.0,0.0,0.0,6600.16855,-6600.16855,0.0010834988770905309,0.0,0.0
3.320089211,0.9999999999552985,9.45531142893856e-06,0.0,0.0,-3.3642437440045497e-16,0.0,0.0,0.0,0.0,6620.0854739999995,-6620.0854739999995,0.0010834988777361268,0.0,0.0
3.330086496,0.9999999999552985,9.455311434572447e-06,0.0,0.0,-3.3642437440045497e-16,0.0,0.0,0.0,0.0,6640.178422000001,-6640.178422000001,0.0010834988783817226,0.0,0.0
3.340114586,0.9999999999552985,9.455311440206334e-06,0.0,0.0,-3.352951853356266e-16,0.0,0.0,0.0,0.0,6660.172992,-6660.172992,0.0010834988790273186,0.0,0.0
3.350091921,0.9999999999552985,9.455311445840221e-06,0.0,0.0,-3.3642437440255827e-16,0.0,0.0,0.0,0.0,6680.229171999999,-6680.229171999999,0.0010834988796729146,0.0,0.0
3.360078546,0.9999999999552985,9.455311451474108e-06,0.0,0.0,-3.364243744088681e-16,0.0,0.0,0.0,0.0,6700.183842,-6700.183842,0.0010834988803185104,0.0,0.0
3.370065661,0.9999999999552985,9.455311457107987e-06,0.0,0.0,-3.3755356347264467e-16,0.0,0.0,0.0,0.0,6720.1570919999995,-6720.1570919999995,0.0010834988809641053,0.0,0.0
3.380055123,0.9999999999552985,9.455311462741866e-06,0.0,0.0,-3.352951853450914e-16,0.0,0.0,0.0,0.0,6740.131322,-6740.131322,0.0010834988816097004,0.0,0.0
3.390079985,0.9999999999552985,9.455311468375761e-06,0.0,0.0,-3.330368072164866e-16,0.0,0.0,0.0,0.0,6760.110245999999,-6760.110245999999,0.0010834988822552973,0.0,0.0
3.400068664,0.9999999999552985,9.455311474009665e-06,0.0,0.0,-3.3190761815165836e-16,0.0,0.0,0.0,0.0,6780.15997,-6780.15997,0.001083498882900895,0.0,0.0
3.410099492,0.9999999999552985,9.45531147964357e-06,0.0,0.0,-3.3190761815165836e-16,0.0,0.0,0.0,0.0,6800.137328,-6800.137328,0.001083498883546493,0.0,0.0
3.420085629,0.9999999999552985,9.455311485277474e-06,0.0,0.0,-3.3190761815271e-16,0.0,0.0,0.0,0.0,6820.198983999999,-6820.198983999999,0.0010834988841920909,0.0,0.0
3.430057683,0.9999999999552985,9.455311490911378e-06,0.0,0.0,-3.3303680721438336e-16,0.0,0.0,0.0,0.0,6840.171257999999,-6840.171257999999,0.0010834988848376886,0.0,0.0
3.440076776,0.9999999999552985,9.455311496545282e-06,0.0,0.0,-3.3190761815060676e-16,0.0,0.0,0.0,0.0,6860.115365999999,-6860.115365999999,0.0010834988854832865,0.0,0.0
3.450003748,0.9999999999552985,9.455311502179186e-06,0.0,0.0,-3.307784290847269e-16,0.0,0.0,0.0,0.0,6880.153552,-6880.153552,0.0010834988861288843,0.0,0.0
3.460147721,0.9999999999552985,9.45531150781309e-06,0.0,0.0,-3.3077842908367525e-16,0.0,0.0,0.0,0.0,6900.007496,-6900.007496,0.0010834988867744822,0.0,0.0
3.470006728,0.9999999999552985,9.455311513446994e-06,0.0,0.0,-3.3077842908367525e-16,0.0,0.0,0.0,0.0,6920.295442,-6920.295442,0.0010834988874200801,0.0,0.0
3.480082736,0.9999999999552985,9.455311519080898e-06,0.0,0.0,-3.3077842908367525e-16,0.0,0.0,0.0,0.0,6940.013456000001,-6940.013456000001,0.0010834988880656779,0.0,0.0
3.490069557,0.9999999999552985,9.455311524714802e-06,0.0,0.0,-3.319076181474518e-16,0.0,0.0,0.0,0.0,6960.165472,-6960.165472,0.0010834988887112758,0.0,0.0
3.500073883,0.9999999999552985,9.455311530348707e-06,0.0,0.0,-3.3190761814640016e-16,0.0,0.0,0.0,0.0,6980.1391140000005,-6980.1391140000005,0.0010834988893568735,0.0,0.0
3.51009542,0.9999999999552985,9.4553115359826e-06,0.0,0.0,-3.3529518533983327e-16,0.0,0.0,0.0,0.0,7000.147766,-7000.147766,0.0010834988900024704,0.0,0.0
3.520076667,0.9999999999552985,9.455311541616478e-06,0.0,0.0,-3.3868275253326647e-16,0.0,0.0,0.0,0.0,7020.190840000001,-7020.190840000001,0.001083498890648065,0.0,0.0
3.530074441,0.9999999999552985,9.455311547250348e-06,0.0,0.0,-3.3981194159809468e-16,0.0,0.0,0.0,0.0,7040.153334,-7040.153334,0.0010834988912936591,0.0,0.0
3.540081017,0.9999999999552985,9.455311552884208e-06,0.0,0.0,-3.4094113066292303e-16,0.0,0.0,0.0,0.0,7060.148882,-7060.148882,0.0010834988919392519,0.0,0.0
3.550006033,0.9999999999552985,9.455311558518061e-06,0.0,0.0,-3.4207031972775123e-16,0.0,0.0,0.0,0.0,7080.162033999999,-7080.162033999999,0.001083498892584844,0.0,0.0
3.560074706,0.9999999999552985,9.455311564151914e-06,0.0,0.0,-3.420703197266996e-16,0.0,0.0,0.0,0.0,7100.012066,-7100.012066,0.001083498893230436,0.0,0.0
3.570129102,0.9999999999552985,9.455311569785768e-06,0.0,0.0,-3.4207031972564793e-16,0.0,0.0,0.0,0.0,7120.149412,-7120.149412,0.001083498893876028,0.0,0.0
3.580082283,0.9999999999552985,9.455311575419621e-06,0.0,0.0,-3.431995087925795e-16,0.0,0.0,0.0,0.0,7140.258204,-7140.258204,0.00108349889452162,0.0,0.0
3.590080448,0.9999999999552985,9.455311581053474e-06,0.0,0.0,-3.420703197266996e-16,0.0,0.0,0.0,0.0,7160.164566000001,-7160.164566000001,0.001083498895167212,0.0,0.0
3.600095922,0.9999999999552985,9.455311586687328e-06,0.0,0.0,-3.431995087904762e-16,0.0,0.0,0.0,0.0,7180.160896,-7180.160896,0.0010834988958128042,0.0,0.0
3.610116775,0.9999999999552985,9.455311592321181e-06,0.0,0.0,-3.420703197245963e-16,0.0,0.0,0.0,0.0,7200.191844,-7200.191844,0.001083498896458396,0.0,0.0
3.620071325,0.9999999999552985,9.455311597955046e-06,0.0,0.0,-3.398119415928364e-16,0.0,0.0,0.0,0.0,7220.233549999998,-7220.233549999998,0.0010834988971039894,0.0,0.0
3.630077998,0.9999999999552985,9.455311603588916e-06,0.0,0.0,-3.3868275252905987e-16,0.0,0.0,0.0,0.0,7240.142649999999,-7240.142649999999,0.0010834988977495835,0.0,0.0
3.640077043,0.9999999999552985,9.455311609222787e-06,0.0,0.0,-3.386827525280082e-16,0.0,0.0,0.0,0.0,7260.155996,-7260.155996,0.0010834988983951775,0.0,0.0
3.650067189,0.9999999999552985,9.455311614856657e-06,0.0,0.0,-3.386827525280082e-16,0.0,0.0,0.0,0.0,7280.154086,-7280.154086,0.0010834988990407713,0.0,0.0
3.660447623,0.9999999999552985,9.455311620490527e-06,0.0,0.0,-3.3981194159178477e-16,0.0,0.0,0.0,0.0,7300.134378000001,-7300.134378000001,0.0010834988996863654,0.0,0.0
3.670072907,0.9999999999552985,9.455311626124385e-06,0.0,0.0,-3.4319950878626963e-16,0.0,0.0,0.0,0.0,7320.895246,-7320.895246,0.001083498900331958,0.0,0.0
3.68007205,0.9999999999552985,9.455311631758239e-06,0.0,0.0,-3.4207031972249303e-16,0.0,0.0,0.0,0.0,7340.145814,-7340.145814,0.00108349890097755,0.0,0.0
3.69000753,0.9999999999552985,9.455311637392092e-06,0.0,0.0,-3.431995087873213e-16,0.0,0.0,0.0,0.0,7360.1441,-7360.1441,0.001083498901623142,0.0,0.0
3.700055081,0.9999999999552985,9.455311643025945e-06,0.0,0.0,-3.431995087873213e-16,0.0,0.0,0.0,0.0,7380.01506,-7380.01506,0.0010834989022687341,0.0,0.0
3.710111334,0.9999999999552985,9.455311648659799e-06,0.0,0.0,-3.420703197235447e-16,0.0,0.0,0.0,0.0,7400.110162,-7400.110162,0.0010834989029143262,0.0,0.0
3.720160351,0.9999999999552985,9.455311654293652e-06,0.0,0.0,-3.4207031972249303e-16,0.0,0.0,0.0,0.0,7420.222668,-7420.222668,0.001083498903559918,0.0,0.0
3.730102188,0.9999999999552985,9.455311659927505e-06,0.0,0.0,-3.4207031972249303e-16,0.0,0.0,0.0,0.0,7440.320702000001,-7440.320702000001,0.0010834989042055102,0.0,0.0
3.740087836,0.9999999999552985,9.455311665561359e-06,0.0,0.0,-3.4207031972249303e-16,0.0,0.0,0.0,0.0,7460.2043760000015,-7460.2043760000015,0.0010834989048511023,0.0,0.0
3.750070843,0.9999999999552985,9.455311671195212e-06,0.0,0.0,-3.4094113065766482e-16,0.0,0.0,0.0,0.0,7480.175672,-7480.175672,0.0010834989054966943,0.0,0.0
3.76009903,0.9999999999552985,9.455311676829065e-06,0.0,0.0,-3.4094113065661317e-16,0.0,0.0,0.0,0.0,7500.141686,-7500.141686,0.0010834989061422862,0.0,0.0
3.770296789,0.9999999999552985,9.455311682462932e-06,0.0,0.0,-3.398119415938881e-16,0.0,0.0,0.0,0.0,7520.198060000001,-7520.198060000001,0.0010834989067878798,0.0,0.0
3.780049887,0.9999999999552985,9.455311688096789e-06,0.0,0.0,-3.4094113065871648e-16,0.0,0.0,0.0,0.0,7540.593578,-7540.593578,0.0010834989074334723,0.0,0.0
3.790090983,0.9999999999552985,9.455311693730642e-06,0.0,0.0,-3.4094113065871648e-16,0.0,0.0,0.0,0.0,7560.099773999998,-7560.099773999998,0.0010834989080790644,0.0,0.0
3.80007311,0.9999999999552985,9.455311699364495e-06,0.0,0.0,-3.4094113065766482e-16,0.0,0.0,0.0,0.0,7580.181965999999,-7580.181965999999,0.0010834989087246563,0.0,0.0
3.810074307,0.9999999999552985,9.455311704998335e-06,0.0,0.0,-3.443286978500463e-16,0.0,0.0,0.0,0.0,7600.1462200000005,-7600.1462200000005,0.0010834989093702469,0.0,0.0
3.820089488,0.9999999999552985,9.455311710632171e-06,0.0,0.0,-3.443286978500463e-16,0.0,0.0,0.0,0.0,7620.148614000001,-7620.148614000001,0.001083498910015837,0.0,0.0
3.830099877,0.9999999999552985,9.455311716266008e-06,0.0,0.0,-3.4432869784899463e-16,0.0,0.0,0.0,0.0,7640.178976,-7640.178976,0.001083498910661427,0.0,0.0
3.840055796,0.9999999999552985,9.455311721899844e-06,0.0,0.0,-3.4432869784689133e-16,0.0,0.0,0.0,0.0,7660.199754,-7660.199754,0.001083498911307017,0.0,0.0
3.850122708,0.9999999999552985,9.45531172753368e-06,0.0,0.0,-3.443286978458397e-16,0.0,0.0,0.0,0.0,7680.111592000001,-7680.111592000001,0.0010834989119526072,0.0,0.0
3.860107769,0.9999999999552985,9.455311733167517e-06,0.0,0.0,-3.4432869784689133e-16,0.0,0.0,0.0,0.0,7700.245416,-7700.245416,0.0010834989125981973,0.0,0.0
3.869995136,0.9999999999552985,9.455311738801353e-06,0.0,0.0,-3.44328697847943e-16,0.0,0.0,0.0,0.0,7720.2155379999995,-7720.2155379999995,0.0010834989132437875,0.0,0.0
3.880090507,0.9999999999552985,9.455311744435217e-06,0.0,0.0,-3.3981194159073317e-16,0.0,0.0,0.0,0.0,7739.990272000001,-7739.990272000001,0.0010834989138893806,0.0,0.0
3.890129549,0.9999999999552985,9.455311750069087e-06,0.0,0.0,-3.386827525269566e-16,0.0,0.0,0.0,0.0,7760.181014,-7760.181014,0.0010834989145349747,0.0,0.0
3.900132701,0.9999999999552985,9.455311755702957e-06,0.0,0.0,-3.3755356346212837e-16,0.0,0.0,0.0,0.0,7780.2590979999995,-7780.2590979999995,0.0010834989151805685,0.0,0.0
3.910010875,0.9999999999552985,9.455311761336812e-06,0.0,0.0,-3.409411306566132e-16,0.0,0.0,0.0,0.0,7800.265402,-7800.265402,0.0010834989158261608,0.0,0.0
3.920074561,0.9999999999552985,9.45531176697065e-06,0.0,0.0,-3.443286978532013e-16,0.0,0.0,0.0,0.0,7820.02175,-7820.02175,0.0010834989164717511,0.0,0.0
3.930099815,0.9999999999552985,9.455311772604487e-06,0.0,0.0,-3.4545788691697784e-16,0.0,0.0,0.0,0.0,7840.149122000001,-7840.149122000001,0.001083498917117341,0.0,0.0
3.940075488,0.9999999999552985,9.455311778238323e-06,0.0,0.0,-3.465870759818062e-16,0.0,0.0,0.0,0.0,7860.19963,-7860.19963,0.0010834989177629312,0.0,0.0
3.950100741,0.9999999999552985,9.455311783872144e-06,0.0,0.0,-3.4884545410620444e-16,0.0,0.0,0.0,0.0,7880.150976,-7880.150976,0.0010834989184085196,0.0,0.0
3.960033679,0.9999999999552985,9.455311789505963e-06,0.0,0.0,-3.4884545410620444e-16,0.0,0.0,0.0,0.0,7900.201482,-7900.201482,0.0010834989190541078,0.0,0.0
3.970133645,0.9999999999552985,9.455311795139783e-06,0.0,0.0,-3.4884545410830774e-16,0.0,0.0,0.0,0.0,7920.067358,-7920.067358,0.001083498919699696,0.0,0.0
3.980131713,0.9999999999552985,9.455311800773602e-06,0.0,0.0,-3.488454541072561e-16,0.0,0.0,0.0,0.0,7940.267290000001,-7940.267290000001,0.001083498920345284,0.0,0.0
3.990092228,0.9999999999552985,9.455311806407422e-06,0.0,0.0,-3.4997464317103264e-16,0.0,0.0,0.0,0.0,7960.263426,-7960.263426,0.0010834989209908721,0.0,0.0
4.000178015,0.9999999999552985,9.455311812041241e-06,0.0,0.0,-3.499746431720843e-16,0.0,0.0,0.0,0.0,7980.184456,-7980.184456,0.0010834989216364603,0.0,0.0
4.010086211,0.9999999999552985,9.455311817675076e-06,0.0,0.0,-3.4658707597654794e-16,0.0,0.0,0.0,0.0,8000.356030000001,-8000.356030000001,0.0010834989222820502,0.0,0.0
4.020038023,0.9999999999552985,9.455311817675076e-06,0.0,0.0,-3.4658707597654794e-16,0.0,0.0,0.0,0.0,8020.172422000001,-8020.172422000001,0.0010834989222820502,0.0,0.0
4.030108847,0.9999999999552985,9.455311828942716e-06,0.0,0.0,-3.477162650403245e-16,0.0,0.0,0.0,0.0,8040.076046,-8040.076046,0.0010834989235732268,0.0,0.0
4.040168621,0.9999999999552985,9.455311834576551e-06,0.0,0.0,-3.465870759775996e-16,0.0,0.0,0.0,0.0,8060.217694,-8060.217694,0.0010834989242188167,0.0,0.0
4.049999366,0.9999999999552985,9.455311834576551e-06,0.0,0.0,-3.465870759775996e-16,0.0,0.0,0.0,0.0,8080.3372420000005,-8080.3372420000005,0.0010834989242188167,0.0,0.0
4.060031759,0.9999999999552985,9.455311840210387e-06,0.0,0.0,-3.465870759775996e-16,0.0,0.0,0.0,0.0,8099.998732000001,-8099.998732000001,0.0010834989248644066,0.0,0.0
4.070084687,0.9999999999552985,9.455311845844224e-06,0.0,0.0,-3.4658707597865124e-16,0.0,0.0,0.0,0.0,8120.063518,-8120.063518,0.0010834989255099968,0.0,0.0
4.080098597,0.9999999999552985,9.45531185147806e-06,0.0,0.0,-3.465870759775996e-16,0.0,0.0,0.0,0.0,8140.169374,-8140.169374,0.001083498926155587,0.0,0.0
4.090078377,0.9999999999552985,9.455311857111896e-06,0.0,0.0,-3.4545788691277123e-16,0.0,0.0,0.0,0.0,8160.197194,-8160.197194,0.001083498926801177,0.0,0.0
4.100123091,0.9999999999552985,9.455311862745733e-06,0.0,0.0,-3.454578869138229e-16,0.0,0.0,0.0,0.0,8180.156754000001,-8180.156754000001,0.0010834989274467672,0.0,0.0
4.110104534,0.9999999999552985,9.45531186837957e-06,0.0,0.0,-3.454578869138229e-16,0.0,0.0,0.0,0.0,8200.246182,-8200.246182,0.001083498928092357,0.0,0.0
4.120176532,0.9999999999552985,9.455311874013406e-06,0.0,0.0,-3.4658707597865124e-16,0.0,0.0,0.0,0.0,8220.209068,-8220.209068,0.0010834989287379472,0.0,0.0
4.130021652,0.9999999999552985,9.455311879647242e-06,0.0,0.0,-3.4545788691277123e-16,0.0,0.0,0.0,0.0,8240.353064,-8240.353064,0.0010834989293835374,0.0,0.0
4.140059619,0.9999999999552985,9.455311885281078e-06,0.0,0.0,-3.4658707597654794e-16,0.0,0.0,0.0,0.0,8260.043304,-8260.043304,0.0010834989300291275,0.0,0.0
4.1501191,0.9999999999552985,9.455311890914915e-06,0.0,0.0,-3.4658707597654794e-16,0.0,0.0,0.0,0.0,8280.119238,-8280.119238,0.0010834989306747176,0.0,0.0
4.160075605,0.9999999999552985,9.45531189654875e-06,0.0,0.0,-3.49974643169981e-16,0.0,0.0,0.0,0.0,8300.238200000002,-8300.238200000002,0.0010834989313203073,0.0,0.0
4.170046486,0.9999999999552985,9.455311902182569e-06,0.0,0.0,-3.4884545410410114e-16,0.0,0.0,0.0,0.0,8320.15121,-8320.15121,0.0010834989319658955,0.0,0.0
4.180082497,0.9999999999552985,9.455311907816388e-06,0.0,0.0,-3.499746431678777e-16,0.0,0.0,0.0,0.0,8340.092972,-8340.092972,0.0010834989326114837,0.0,0.0
4.190073328,0.9999999999552985,9.455311913450208e-06,0.0,0.0,-3.4997464316682604e-16,0.0,0.0,0.0,0.0,8360.164994,-8360.164994,0.001083498933257072,0.0,0.0
4.200257102,0.9999999999552985,9.455311919084027e-06,0.0,0.0,-3.4997464316682604e-16,0.0,0.0,0.0,0.0,8380.146656,-8380.146656,0.00108349893390266,0.0,0.0
4.210105059,0.9999999999552985,9.455311924717846e-06,0.0,0.0,-3.4884545410199784e-16,0.0,0.0,0.0,0.0,8400.514204000001,-8400.514204000001,0.0010834989345482483,0.0,0.0
4.220111438,0.9999999999552985,9.455311930351666e-06,0.0,0.0,-3.499746431657744e-16,0.0,0.0,0.0,0.0,8420.210117999999,-8420.210117999999,0.0010834989351938364,0.0,0.0
4.230175808,0.9999999999552985,9.455311935985485e-06,0.0,0.0,-3.499746431657744e-16,0.0,0.0,0.0,0.0,8440.222876,-8440.222876,0.0010834989358394244,0.0,0.0
4.240031882,0.9999999999552985,9.455311941619305e-06,0.0,0.0,-3.4771626503611794e-16,0.0,0.0,0.0,0.0,8460.351616,-8460.351616,0.0010834989364850126,0.0,0.0
4.250008924,0.9999999999552985,9.455311947253124e-06,0.0,0.0,-3.4771626503611794e-16,0.0,0.0,0.0,0.0,8480.063764,-8480.063764,0.0010834989371306008,0.0,0.0
4.260112411,0.9999999999552985,9.455311952886947e-06,0.0,0.0,-3.4545788690751303e-16,0.0,0.0,0.0,0.0,8500.017848000001,-8500.017848000001,0.0010834989377761894,0.0,0.0
4.270054052,0.9999999999552985,9.455311958520783e-06,0.0,0.0,-3.4545788690751303e-16,0.0,0.0,0.0,0.0,8520.224822,-8520.224822,0.0010834989384217795,0.0,0.0
4.280064246,0.9999999999552985,9.45531196415462e-06,0.0,0.0,-3.454578869085647e-16,0.0,0.0,0.0,0.0,8540.108103999999,-8540.108103999999,0.0010834989390673695,0.0,0.0
4.290127051,0.9999999999552985,9.45531196978846e-06,0.0,0.0,-3.4207031971407993e-16,0.0,0.0,0.0,0.0,8560.128492000002,-8560.128492000002,0.00108349893971296,0.0,0.0
4.300070844,0.9999999999552985,9.455311975422313e-06,0.0,0.0,-3.4207031971302828e-16,0.0,0.0,0.0,0.0,8580.254102,-8580.254102,0.001083498940358552,0.0,0.0
4.310072138,0.9999999999552985,9.455311981056166e-06,0.0,0.0,-3.431995087789082e-16,0.0,0.0,0.0,0.0,8600.141688,-8600.141688,0.001083498941004144,0.0,0.0
4.320093676,0.9999999999552985,9.45531198669002e-06,0.0,0.0,-3.431995087789082e-16,0.0,0.0,0.0,0.0,8620.144275999999,-8620.144275999999,0.001083498941649736,0.0,0.0
4.330150809,0.9999999999552985,9.455311992323873e-06,0.0,0.0,-3.4207031971407993e-16,0.0,0.0,0.0,0.0,8640.187351999999,-8640.187351999999,0.0010834989422953282,0.0,0.0
4.339979207,0.9999999999552985,9.455311997957726e-06,0.0,0.0,-3.431995087789082e-16,0.0,0.0,0.0,0.0,8660.301618,-8660.301618,0.0010834989429409202,0.0,0.0
4.350013751,0.9999999999552985,9.45531200359158e-06,0.0,0.0,-3.4319950877995983e-16,0.0,0.0,0.0,0.0,8679.958413999999,-8679.958413999999,0.001083498943586512,0.0,0.0
4.360100614,0.9999999999552985,9.455312009225432e-06,0.0,0.0,-3.431995087810115e-16,0.0,0.0,0.0,0.0,8700.027501999999,-8700.027501999999,0.0010834989442321042,0.0,0.0
4.370013113,0.9999999999552985,9.455312014859282e-06,0.0,0.0,-3.443286978447881e-16,0.0,0.0,0.0,0.0,8720.201228,-8720.201228,0.0010834989448776958,0.0,0.0
4.38016843,0.9999999999552985,9.455312020493122e-06,0.0,0.0,-3.4319950878206313e-16,0.0,0.0,0.0,0.0,8740.026226,-8740.026226,0.0010834989455232864,0.0,0.0
4.390225661,0.9999999999552985,9.455312026126975e-06,0.0,0.0,-3.4319950878206313e-16,0.0,0.0,0.0,0.0,8760.336860000001,-8760.336860000001,0.0010834989461688783,0.0,0.0
4.400064132,0.9999999999552985,9.455312031760829e-06,0.0,0.0,-3.431995087831148e-16,0.0,0.0,0.0,0.0,8780.451321999999,-8780.451321999999,0.0010834989468144704,0.0,0.0
4.4100799,0.9999999999552985,9.455312037394682e-06,0.0,0.0,-3.4319950878416643e-16,0.0,0.0,0.0,0.0,8800.128264,-8800.128264,0.0010834989474600625,0.0,0.0
4.420046869,0.9999999999552985,9.45531204302853e-06,0.0,0.0,-3.443286978489947e-16,0.0,0.0,0.0,0.0,8820.1598,-8820.1598,0.001083498948105654,0.0,0.0
4.430075252,0.9999999999552985,9.455312048662367e-06,0.0,0.0,-3.4432869785004633e-16,0.0,0.0,0.0,0.0,8840.093738,-8840.093738,0.001083498948751244,0.0,0.0
4.440075666,0.9999999999552985,9.455312054296208e-06,0.0,0.0,-3.431995087873214e-16,0.0,0.0,0.0,0.0,8860.150504,-8860.150504,0.0010834989493968346,0.0,0.0
4.450073734,0.9999999999552985,9.455312059930061e-06,0.0,0.0,-3.431995087873214e-16,0.0,0.0,0.0,0.0,8880.151332,-8880.151332,0.0010834989500424267,0.0,0.0
4.460073365,0.9999999999552985,9.455312065563915e-06,0.0,0.0,-3.420703197214415e-16,0.0,0.0,0.0,0.0,8900.147468000001,-8900.147468000001,0.0010834989506880188,0.0,0.0
4.47007466,0.9999999999552985,9.455312071197768e-06,0.0,0.0,-3.4319950878626973e-16,0.0,0.0,0.0,0.0,8920.14673,-8920.14673,0.0010834989513336109,0.0,0.0
